,state_code,latitude,longitude,zip_code,id,city,Unnamed: 6,name,labels,founded_at,closed_at,first_funding_at,last_funding_at,age_first_funding_year,age_last_funding_year,age_first_milestone_year,age_last_milestone_year,relationships,funding_rounds,funding_total_usd,milestones,state_code.1,is_CA,is_NY,is_MA,is_TX,is_otherstate,category_code,is_software,is_web,is_mobile,is_enterprise,is_advertising,is_gamesvideo,is_ecommerce,is_biotech,is_consulting,is_othercategory,object_id,has_VC,has_angel,has_roundA,has_roundB,has_roundC,has_roundD,avg_participants,is_top500,status,link_name
0,CA,42.35888,-71.05682,92101,c:6669,San Diego,San Diego CA 92101,Bandsintown,1,1/1/2007,Still Operating,4/1/2009,1/1/2010,2.2493,3.0027,4.6685,6.7041,3,3,375000,3,CA,1,0,0,0,0,music,0,0,0,0,0,0,0,0,0,1,c:6669,0,1,0,0,0,0,1.0,0,acquired,bandsintown
1,CA,37.238916,-121.973718,95032,c:16283,Los Gatos,Los Gatos CA 95032,TriCipher,1,1/1/2000,Still Operating,2/14/2005,12/28/2009,5.126,9.9973,7.0055,7.0055,9,4,40100000,1,CA,1,0,0,0,0,enterprise,0,0,0,1,0,0,0,0,0,0,c:16283,1,0,0,1,1,1,4.75,1,acquired,tricipher
2,CA,32.901049,-117.192656,92121,c:65620,San Diego,San Diego CA 92121,Plixi,1,3/18/2009,Still Operating,3/30/2010,3/30/2010,1.0329,1.0329,1.4575,2.2055,5,1,2600000,2,CA,1,0,0,0,0,web,0,1,0,0,0,0,0,0,0,0,c:65620,0,0,1,0,0,0,4.0,1,acquired,plixi
3,CA,37.320309,-122.05004,95014,c:42668,Cupertino,Cupertino CA 95014,Solidcore Systems,1,1/1/2002,Still Operating,2/17/2005,4/25/2007,3.1315,5.3151,6.0027,6.0027,5,3,40000000,1,CA,1,0,0,0,0,software,1,0,0,0,0,0,0,0,0,0,c:42668,0,0,0,1,1,1,3.3333,1,acquired,solidcore systems
4,CA,37.779281,-122.419236,94105,c:65806,San Francisco,San Francisco CA 94105,Inhale Digital,0,8/1/2010,10/1/2012,8/1/2010,4/1/2012,0.0,1.6685,0.0384,0.0384,2,2,1300000,1,CA,1,0,0,0,0,games_video,0,0,0,0,0,1,0,0,0,0,c:65806,1,1,0,0,0,0,1.0,1,closed,inhale digital
5,CA,37.406914,-122.09037,94043,c:22898,Mountain View,Mountain View CA 94043,Matisse Networks,0,1/1/2002,2/15/2009,7/18/2006,7/18/2006,4.5452,4.5452,5.0027,5.0027,3,1,7500000,1,CA,1,0,0,0,0,network_hosting,0,0,0,0,0,0,0,0,0,1,c:22898,0,0,0,1,0,0,3.0,1,closed,matisse networks
6,CA,37.3915589,-122.0702643,94041,c:16191,Mountain View,Mountain View CA 94041,RingCube Technologies,1,1/1/2005,Still Operating,9/21/2006,3/18/2010,1.7205,5.211,3.0,6.6082,6,3,26000000,2,CA,1,0,0,0,0,software,1,0,0,0,0,0,0,0,0,0,c:16191,1,0,1,1,0,0,1.6667,1,acquired,ringcube technologies
7,CA,38.057107,-122.513742,94901,c:5192,San Rafael,San Rafael CA 94901,ClairMail,1,1/1/2004,Still Operating,8/24/2005,10/4/2010,1.6466,6.7616,5.6055,7.3616,25,3,34100000,3,CA,1,0,0,0,0,finance,0,0,0,0,0,0,0,0,0,1,c:5192,0,0,1,1,0,1,3.5,1,acquired,clairmail
8,MA,42.712207,-73.203599,1267,c:1043,Williamstown,Williamstown MA 1267,VoodooVox,1,1/1/2002,Still Operating,8/2/2005,2/8/2013,3.5863,11.1123,8.0055,9.9945,13,3,9650000,4,MA,0,0,1,0,0,mobile,0,0,1,0,0,0,0,0,0,0,c:1043,1,0,1,0,0,1,4.0,1,acquired,voodoovox
9,CA,37.427235,-122.145783,94306,c:498,Palo Alto,Palo Alto CA 94306,Doostang,1,6/1/2005,Still Operating,2/1/2007,2/5/2010,1.6712,4.6849,2.9178,6.1151,14,3,5750000,4,CA,1,0,0,0,0,web,0,1,0,0,0,0,0,0,0,0,c:498,1,1,1,0,0,0,1.0,1,acquired,doostang
10,CA,37.4429885,-122.1624131,94025,c:3949,Menlo Park,Menlo Park CA 94025,Zong,1,11/15/2000,Still Operating,7/1/2005,4/26/2010,4.6274,9.4493,10.1342,10.6493,22,3,27500000,3,CA,1,0,0,0,0,mobile,0,0,1,0,0,0,0,0,0,0,c:3949,0,0,1,1,0,0,1.0,1,acquired,zong
11,CA,37.452992,-122.185098,94025,c:4829,Menlo Park,Menlo Park CA 94025,Center'd,0,1/1/2006,12/2/2011,2/1/2007,5/3/2011,1.0849,5.3370000000000015,-0.6164,4.6082,8,5,10400000,2,CA,1,0,0,0,0,web,0,1,0,0,0,0,0,0,0,0,c:4829,1,1,1,0,0,0,1.75,1,closed,center'd
12,KY,38.241467,-85.72451099999998,40204,c:30290,Louisville,Louisville KY 40204,Resonant Vibes,0,1/1/2004,4/27/2012,11/25/2008,11/25/2008,4.9041,4.9041,3.0553530479896267,4.754422568093387,0,1,350000,0,KY,0,0,0,0,1,web,0,1,0,0,0,0,0,0,0,0,c:30290,1,0,0,0,0,0,1.0,0,closed,resonant vibes
13,NY,40.70276,-73.98666800000002,11201,c:1491,Brooklyn,Brooklyn NY 11201,drop.io,1,11/26/2007,Still Operating,12/3/2007,5/3/2010,0.0192,2.4356,0.7945,4.3781,15,3,9950000,3,NY,0,1,0,0,0,education,0,0,0,0,0,0,0,0,0,1,c:1491,0,0,1,1,1,0,2.3333,1,acquired,drop.io
14,CO,39.74627279999999,-104.9911572,80202,c:15645,Denver,Denver CO 80202,Stratavia,1,1/1/2001,Still Operating,8/31/2005,12/29/2009,4.6658,8.9973,8.8384,8.8384,12,5,10700000,1,CO,0,0,0,0,1,software,1,0,0,0,0,0,0,0,0,0,c:15645,0,0,1,1,0,0,2.5,1,acquired,stratavia
15,VA,38.901301,-77.265158,22182,c:54177,Vienna,Vienna VA 22182,Invicta Networks,0,1/1/1999,3/28/2010,8/9/2005,8/9/2005,6.6082,6.6082,3.0553530479896267,4.754422568093387,0,1,200000,0,VA,0,0,0,0,1,public_relations,0,0,0,0,0,0,0,0,0,1,c:54177,1,0,0,0,0,0,1.0,0,closed,invicta networks
16,CA,37.39628270000001,-122.105531,94022,c:16770,Los Altos,Los Altos CA 94022,QSecure,0,1/1/2003,9/22/2012,8/2/2005,10/5/2009,2.5863,6.7644,5.5014,5.5014,8,5,49000000,1,CA,1,0,0,0,0,security,0,0,0,0,0,0,0,0,0,1,c:16770,1,0,1,1,1,1,3.5,1,closed,qsecure
17,CA,37.590339,-122.341715,94010,c:107,Burlingame,Burlingame CA 94010,MeeVee,1,7/1/2000,Still Operating,2/1/2005,9/1/2007,4.5918,7.1726,-0.4986,12.6795,7,4,25000000,3,CA,1,0,0,0,0,games_video,0,0,0,0,0,1,0,0,0,0,c:107,0,0,1,1,1,1,3.5,1,acquired,meevee
18,NY,40.730646,-73.986614,10004,c:50727,New York,New York NY 10004,SinglePlatform,1,1/1/2010,Still Operating,9/29/2010,8/1/2011,0.7425,1.5808,1.2849,3.0027,10,3,4575000,3,NY,0,1,0,0,0,web,0,1,0,0,0,0,0,0,0,0,c:50727,0,1,1,0,0,0,5.0,1,acquired,singleplatform
19,CA,37.446411,-122.16054,94301,c:26368,Palo Alto,Palo Alto CA 94301,Bling Nation,0,1/1/2007,9/10/2011,7/2/2009,10/30/2009,2.5014,2.8301,3.0877,3.4932,13,2,28000000,3,CA,1,0,0,0,0,enterprise,0,0,0,1,0,0,0,0,0,0,c:26368,0,0,1,1,0,0,1.0,1,closed,bling nation
20,TX,30.2350399,-97.80012990000002,78735,c:22291,Austin,Austin TX 78735,Metreos Corporation,1,1/1/2001,Still Operating,3/20/2003,10/14/2004,2.2137,3.7863,4.0877,9.4986,8,2,4355000,3,TX,0,0,0,1,0,software,1,0,0,0,0,0,0,0,0,0,c:22291,0,1,1,0,0,0,1.5,0,acquired,metreos corporation
21,WA,47.6026054,-122.2848651,98122,c:17857,Seattle,Seattle WA 98122,Hidden City Games,0,1/1/2004,9/28/2011,10/31/2007,10/31/2007,3.8329,3.8329,3.7507,3.7507,3,1,15000000,1,WA,0,0,0,0,1,other,0,0,0,0,0,0,0,0,0,1,c:17857,0,0,0,1,0,0,2.0,1,closed,hidden city games
22,CA,37.426316,-122.141082,94306,c:15888,Palo Alto,Palo Alto CA 94306,Neopolitan Networks,0,1/1/2002,7/25/2008,6/28/2007,6/28/2007,5.4904,5.4904,0.0,0.0,1,1,3170000,1,CA,1,0,0,0,0,web,0,1,0,0,0,0,0,0,0,0,c:15888,0,0,1,0,0,0,2.0,0,closed,neopolitan networks
23,CA,37.764395,-122.401024,94103,c:10751,San Francisco,San Francisco CA 94103,Pixelpipe,0,1/1/2008,8/2/2013,1/1/2007,4/25/2011,-1.0,3.3151,3.6959,5.6629999999999985,4,2,2300000,3,CA,1,0,0,0,0,mobile,0,0,1,0,0,0,0,0,0,0,c:10751,0,1,1,0,0,0,2.0,0,closed,pixelpipe
24,CO,40.010492,-105.276843,80302,c:458,Boulder,Boulder CO 80302,EventVue,0,5/1/2007,2/1/2010,8/1/2007,9/1/2007,0.2521,0.337,3.0553530479896267,4.754422568093387,5,2,455000,0,CO,0,0,0,0,1,public_relations,0,0,0,0,0,0,0,0,0,1,c:458,0,1,1,0,0,0,4.5,1,closed,eventvue
25,IL,41.875555,-87.624421,60601,c:45525,Chicago,Chicago IL 60601,BridgePort Networks,1,1/1/2002,Still Operating,11/3/2006,11/3/2006,4.8411,4.8411,1.0,1.0,3,1,13000000,1,IL,0,0,0,0,1,software,1,0,0,0,0,0,0,0,0,0,c:45525,0,0,0,0,1,0,4.0,1,acquired,bridgeport networks
26,CA,37.429676,-122.1085482,94303,c:3193,Palo Alto,Palo Alto CA 94303,Scalent Systems,1,1/1/2003,Still Operating,1/22/2007,1/22/2007,4.0603,4.0603,3.0027,3.0027,7,1,15000000,1,CA,1,0,0,0,0,public_relations,0,0,0,0,0,0,0,0,0,1,c:3193,0,0,0,0,1,0,4.0,1,acquired,scalent systems
27,CA,37.870102,-122.268136,94704,c:28456,Berkeley,Berkeley CA 94704,IQ Engines,1,6/1/2008,Still Operating,6/25/2012,6/25/2012,4.0685,4.0685,3.4192,5.2301,2,1,3800000,3,CA,1,0,0,0,0,photo_video,0,0,0,0,0,0,0,0,0,1,c:28456,0,0,0,1,0,0,2.0,1,acquired,iq engines
28,TX,30.2653441,-97.7435857,78701,c:36920,Austin,Austin TX 78701,"RetailMeNot, Inc.",1,5/1/2007,Still Operating,11/1/2009,11/10/2011,2.5068,4.5315,4.9315,5.6767,37,5,299500000,2,TX,0,0,0,1,0,web,0,1,0,0,0,0,0,0,0,0,c:36920,1,0,1,0,1,0,1.75,1,acquired,"retailmenot, inc."
29,CA,33.708708,-117.852069,92705,c:35712,Santa Ana,Santa Ana CA 92705,Mophie,1,5/24/2005,Still Operating,8/1/2006,8/1/2006,1.189,1.189,2.189,7.7753,5,1,1000000,3,CA,1,0,0,0,0,hardware,0,0,0,0,0,0,0,0,0,1,c:35712,1,0,0,0,0,0,2.0,1,acquired,mophie
30,CA,37.422859,-122.045217,94035,c:21492,Moffett Field,Moffett Field CA 94035,Airship Ventures,0,1/1/2007,11/14/2012,5/9/2008,3/1/2009,1.3534,2.1644,4.5178,4.5178,3,2,10500000,1,CA,1,0,0,0,0,other,0,0,0,0,0,0,0,0,0,1,c:21492,0,0,1,1,0,0,2.0,1,closed,airship ventures
31,WA,47.603832,-122.330062,98119,c:28768,Seattle,Seattle WA 98119,Lockdown Networks,1,1/1/2001,Still Operating,2/25/2005,3/2/2006,4.1534,5.1671,3.0,3.0,6,2,8600000,1,WA,0,0,0,0,1,public_relations,0,0,0,0,0,0,0,0,0,1,c:28768,1,0,0,1,0,0,1.5,1,acquired,lockdown networks
32,NC,36.002893,-78.904075,27701,c:27741,Durham,Durham NC 27701,eMinor,0,10/1/2006,2/17/2012,8/1/2006,10/7/2008,-0.1671,2.0192,3.0553530479896267,4.754422568093387,9,2,5000000,0,NC,0,0,0,0,1,software,1,0,0,0,0,0,0,0,0,0,c:27741,0,0,1,1,0,0,2.5,1,closed,eminor
33,CA,37.779281,-122.419236,94105,c:150658,San Francisco,San Francisco CA 94105,Karma,1,1/1/2011,Still Operating,1/1/2011,11/14/2011,0.0,0.8685,0.4137,2.1671,3,2,2304999,2,CA,1,0,0,0,0,mobile,0,0,1,0,0,0,0,0,0,0,c:150658,1,0,0,0,0,0,5.0,1,acquired,karma
34,PA,40.441694,-79.990086,15219,c:34338,Pittsburgh,Pittsburgh PA 15219,Zipano,0,6/1/2009,5/27/2012,7/1/2009,7/1/2009,0.0822,0.0822,3.0553530479896267,4.754422568093387,2,1,25000,0,PA,0,0,0,0,1,security,0,0,0,0,0,0,0,0,0,1,c:34338,0,1,0,0,0,0,1.0,0,closed,zipano
35,NY,40.73901,-73.997259,10011,c:45111,New York,New York NY 10011,Entertainment Media Works,0,7/1/2004,10/1/2008,2/26/2007,2/26/2007,2.6575,2.6575,0.0,0.0,1,1,4000000,1,NY,0,1,0,0,0,software,1,0,0,0,0,0,0,0,0,0,c:45111,0,0,0,1,0,0,1.0,1,closed,entertainment media works
36,CA,37.791137,-122.391843,94111,c:3178,San Francisco,San Francisco CA 94111,Elastra,0,1/1/2007,1/28/2011,8/15/2007,8/5/2008,0.6192,1.5945,1.0,4.3315,8,2,14600000,3,CA,1,0,0,0,0,software,1,0,0,0,0,0,0,0,0,0,c:3178,0,0,1,1,0,0,2.0,1,closed,elastra
37,CA,37.404788,-121.940842,95134,c:35402,San Jose,San Jose CA 95134,RPO,0,1/1/2005,6/1/2013,1/24/2006,9/13/2010,1.063,5.7014,3.0553530479896267,4.754422568093387,0,3,44000000,0,CA,1,0,0,0,0,hardware,0,0,0,0,0,0,0,0,0,1,c:35402,0,0,0,1,1,0,4.5,1,closed,rpo
38,CA,37.7795014,-122.3948712,94107,c:22856,San Francisco,San Francisco CA 94107,Fotomoto,1,10/1/2008,Still Operating,12/1/2008,5/26/2011,0.1671,2.6493,0.6082,4.7507,10,3,1822922,3,CA,1,0,0,0,0,ecommerce,0,0,0,0,0,0,1,0,0,0,c:22856,0,1,1,0,0,0,2.3333,1,acquired,fotomoto
39,NY,40.755446,-73.980246,10010,c:1224,New York,New York NY 10010,Peer39,1,3/1/2006,Still Operating,3/1/2006,1/24/2012,0.0,5.9041,3.8411,7.1370000000000005,18,7,29915001,5,NY,0,1,0,0,0,advertising,0,0,0,0,1,0,0,0,0,0,c:1224,1,1,1,1,1,0,2.75,1,acquired,peer39
40,GA,33.756806,-84.392198,30303,c:1234,Atlanta,Atlanta GA 30303,Vitrue,1,5/1/2006,Still Operating,5/1/2006,2/17/2011,0.0,4.8027,3.7205,7.6164,26,4,33000000,5,GA,0,0,0,0,1,enterprise,0,0,0,1,0,0,0,0,0,0,c:1234,0,0,1,1,1,0,3.0,1,acquired,vitrue
41,NH,42.99564,-71.454789,3101,c:149809,Manchester,Manchester NH 3101,Trendslide,1,8/1/2011,Still Operating,8/1/2011,3/1/2012,0.0,0.5836,0.5836,0.5945,9,2,125000,2,NH,0,0,0,0,1,mobile,0,0,1,0,0,0,0,0,0,0,c:149809,0,1,0,0,0,0,1.0,0,acquired,trendslide
42,CA,40.01573320000001,-105.275027,94025,c:13733,Menlo Park,Menlo Park CA 94025,PublicEarth,0,1/1/2008,2/15/2011,2/8/2008,5/21/2010,0.1041,2.3863,2.3315,2.7918,7,2,4000000,2,CA,1,0,0,0,0,travel,0,0,0,0,0,0,0,0,0,1,c:13733,1,0,1,0,0,0,1.0,1,closed,publicearth
43,WA,47.63609,-122.327028,98102,c:39106,Seattle,Seattle WA 98102,Azaleos,1,5/11/2004,Still Operating,11/6/2007,11/6/2007,3.4904,3.4904,5.6603,8.3425,10,1,10000000,3,WA,0,0,0,0,1,enterprise,0,0,0,1,0,0,0,0,0,0,c:39106,0,0,0,0,1,0,2.0,1,acquired,azaleos
44,CA,37.4049731,-122.0323525,94089,c:5306,Sunnyvale,Sunnyvale CA 94089,Efficient Frontier,1,1/1/2002,Still Operating,8/31/2006,8/31/2006,4.6658,4.6658,8.7425,10.2247,25,1,6000000,4,CA,1,0,0,0,0,advertising,0,0,0,0,1,0,0,0,0,0,c:5306,0,0,0,0,1,0,3.0,1,acquired,efficient frontier
45,CA,37.36883,-122.03635,94085,c:16303,Sunnyvale,Sunnyvale CA 94085,NetDevices,1,1/1/2003,Still Operating,8/16/2005,8/16/2005,2.6247,2.6247,3.0553530479896267,4.754422568093387,4,1,25000000,0,CA,1,0,0,0,0,software,1,0,0,0,0,0,0,0,0,0,c:16303,0,0,0,1,0,0,5.0,1,acquired,netdevices
46,NY,40.730646,-73.986614,100011,c:43188,New York,New York NY 100011,Go Try It On,1,12/1/2009,Still Operating,11/4/2010,11/13/2012,0.926,2.9534,0.8329,2.7425,2,3,3750000,3,NY,0,1,0,0,0,fashion,0,0,0,0,0,0,0,0,0,1,c:43188,0,1,1,0,0,0,2.0,1,acquired,go try it on
47,MA,42.3751,-71.105616,2139,c:33507,Cambridge,Cambridge MA 2139,Performable,1,10/17/2009,Still Operating,1/15/2010,1/15/2010,0.2466,0.2466,1.1178,1.663,9,1,3000000,2,MA,0,0,1,0,0,software,1,0,0,0,0,0,0,0,0,0,c:33507,0,0,1,0,0,0,1.0,1,acquired,performable
48,CA,37.779281,-122.419236,94607,c:68157,San Francisco,San Francisco CA 94607,Appstores.com,1,5/24/2010,Still Operating,8/1/2010,8/1/2011,0.189,1.189,1.3562,1.6575,6,2,1155000,2,CA,1,0,0,0,0,software,1,0,0,0,0,0,0,0,0,0,c:68157,0,1,0,0,0,0,9.5,1,acquired,appstores.com
49,CA,37.560781,-122.284114,94404,c:2395,San Mateo,San Mateo CA 94404,Fortify Software,1,10/1/2002,Still Operating,12/15/2005,12/15/2005,3.2082,3.2082,5.2548,7.8822,11,1,10000000,2,CA,1,0,0,0,0,software,1,0,0,0,0,0,0,0,0,0,c:2395,0,0,0,0,0,1,2.0,1,acquired,fortify software
50,CA,37.658313,-122.391032,94080,c:38220,South San Francisco,South San Francisco CA 94080,iCurrent,1,1/1/2006,Still Operating,8/1/2008,8/1/2008,2.5836,2.5836,2.0,2.0,5,1,3000000,1,CA,1,0,0,0,0,web,0,1,0,0,0,0,0,0,0,0,c:38220,0,0,1,0,0,0,1.0,1,acquired,icurrent
51,MA,42.360253,-71.058291,2210,c:49815,Boston,Boston MA 2210,AisleBuyer,1,1/1/2009,Still Operating,11/23/2010,6/13/2011,1.8932,2.4466,2.0,3.2767,4,2,11500000,3,MA,0,0,1,0,0,mobile,0,0,1,0,0,0,0,0,0,0,c:49815,0,0,0,0,0,0,1.0,1,acquired,aislebuyer
52,TX,30.321464,-97.75501,78731,c:249,Austin,Austin TX 78731,Indeed,1,11/1/2004,Still Operating,8/1/2005,8/1/2005,0.7479,0.7479,4.0493,8.3233,12,1,5000000,5,TX,0,0,0,1,0,web,0,1,0,0,0,0,0,0,0,0,c:249,0,0,1,0,0,0,3.0,1,acquired,indeed
53,MA,42.37564,-71.2358,2451,c:22027,Waltham,Waltham MA 2451,Colubris Networks,1,1/1/2000,Still Operating,3/8/2005,10/23/2006,5.1863,6.8137,7.3342,7.3342,9,2,29000000,1,MA,0,0,1,0,0,public_relations,0,0,0,0,0,0,0,0,0,1,c:22027,1,0,0,0,0,1,5.0,1,acquired,colubris networks
54,CA,37.7870842,-122.4038047,94103,c:109,San Francisco,San Francisco CA 94103,Mashery,1,5/1/2006,Still Operating,1/1/2007,7/23/2012,0.6712,6.2329,4.0493,7.5973,37,6,34700000,4,CA,1,0,0,0,0,enterprise,0,0,0,1,0,0,0,0,0,0,c:109,1,1,1,1,1,1,5.0,1,acquired,mashery
55,CA,37.441537,-122.158332,94301,c:43948,Palo Alto,Palo Alto CA 94301,Transparency Software,0,1/1/2004,1/1/2009,3/9/2005,7/1/2007,1.1863,3.4986,3.0553530479896267,4.754422568093387,0,2,12050000,0,CA,1,0,0,0,0,software,1,0,0,0,0,0,0,0,0,0,c:43948,1,0,1,0,0,0,2.0,1,closed,transparency software
56,CA,37.445586,-122.161929,95128,c:765,Palo Alto,Palo Alto CA 95128,Viewdle,1,1/1/2006,Still Operating,3/1/2008,10/5/2010,2.1644,4.7616,4.0027,6.7534,13,3,12000000,2,CA,1,0,0,0,0,analytics,0,0,0,0,0,0,0,0,0,1,c:765,1,0,1,1,0,0,2.0,1,acquired,viewdle
57,CA,33.5842816,-117.7306817,92656,c:19257,Aliso Viejo,Aliso Viejo CA 92656,Enclarity,1,2/1/2005,Still Operating,3/10/2009,3/10/2009,4.1041,4.1041,1.9151,1.9151,18,1,5500000,1,CA,1,0,0,0,0,consulting,0,0,0,0,0,0,0,0,1,0,c:19257,0,0,0,0,1,0,2.0,1,acquired,enclarity
58,CA,37.402773,-122.052551,94089,c:25827,Sunnyvale,Sunnyvale CA 94089,Virsto Software,1,7/1/2007,Still Operating,6/26/2009,8/25/2011,1.989,4.1534,2.8986,5.2575,10,3,24000000,4,CA,1,0,0,0,0,software,1,0,0,0,0,0,0,0,0,0,c:25827,0,0,1,1,0,0,3.3333,1,acquired,virsto software
59,MO,39.103151,-94.581908,64106,c:5932,Kansas City,Kansas City MO 64106,Handmark,1,7/1/2000,Still Operating,9/12/2005,9/7/2006,5.2027,6.189,7.5068,12.8932,6,2,10000000,2,MO,0,0,0,0,1,mobile,0,0,1,0,0,0,0,0,0,0,c:5932,0,0,1,1,0,0,4.5,1,acquired,handmark
60,MA,42.546483,-71.17366700000002,1887,c:35157,Wilmington,Wilmington MA 1887,Viacor,0,12/1/1999,11/11/2011,9/12/2002,11/10/2010,2.7836,10.9507,-1.9151,-1.9151,10,3,19009671,1,MA,0,0,1,0,0,biotech,0,0,0,0,0,0,0,1,0,0,c:35157,0,0,0,1,0,0,2.0,1,closed,viacor
61,CA,37.805289,-122.404448,94111,c:8596,San Francisco,San Francisco CA 94111,Carbonetworks,0,1/1/2005,7/28/2011,7/1/2008,7/1/2008,3.4986,3.4986,3.0,3.0,6,1,5000000,1,CA,1,0,0,0,0,cleantech,0,0,0,0,0,0,0,0,0,1,c:8596,0,0,1,0,0,0,1.0,1,closed,carbonetworks
62,WA,47.675489,-122.191667,98033-6314,c:19861,Kirkland,Kirkland WA 98033-6314,SchemaLogic,1,1/1/2001,Still Operating,1/17/2005,4/20/2010,4.0466,9.3041,6.0027,6.0027,2,5,18914576,1,WA,0,0,0,0,1,enterprise,0,0,0,1,0,0,0,0,0,0,c:19861,1,0,0,0,1,0,3.0,1,acquired,schemalogic
63,FL,27.951849,-82.456397,33609,c:45114,Tampa,Tampa FL 33609,Skyway Software,0,1/1/2001,10/1/2012,5/16/2007,5/16/2007,6.3726,6.3726,3.0553530479896267,4.754422568093387,0,1,4000000,0,FL,0,0,0,0,1,software,1,0,0,0,0,0,0,0,0,0,c:45114,1,0,0,0,0,0,3.0,0,closed,skyway software
64,MA,42.360253,-71.058291,02111-1720,c:23533,Boston,Boston MA 02111-1720,CardStar,1,12/1/2008,Still Operating,3/30/2010,9/13/2011,1.3259999999999998,2.7836,1.6740000000000002,3.1342,5,3,2030882,2,MA,0,0,1,0,0,software,1,0,0,0,0,0,0,0,0,0,c:23533,0,0,1,0,0,0,3.0,1,acquired,cardstar
65,CA,37.7831775,-122.3086191,94501,c:25325,Alameda,Alameda CA 94501,Makani Power,1,1/1/2006,Still Operating,8/23/2008,8/23/2008,2.6438,2.6438,0.0,7.3918,4,1,5000000,2,CA,1,0,0,0,0,cleantech,0,0,0,0,0,0,0,0,0,1,c:25325,0,0,0,1,0,0,1.0,1,acquired,makani power
66,WA,47.765758,-122.184304,98011,c:8351,Bothell,Bothell WA 98011,Myrio,0,12/1/1999,1/1/2012,1/1/2001,1/1/2001,1.0877,1.0877,3.0553530479896267,4.754422568093387,5,1,20500000,0,WA,0,0,0,0,1,software,1,0,0,0,0,0,0,0,0,0,c:8351,1,0,0,0,0,0,4.0,1,closed,myrio
67,CO,40.730646,-73.986614,80302,c:10392,Boulder,Boulder CO 80302,Intela,1,2/2/2006,Still Operating,1/18/2010,8/9/2012,3.9616,6.5205,4.5781,7.6877,4,2,13250000,4,CO,0,0,0,0,1,advertising,0,0,0,0,1,0,0,0,0,0,c:10392,1,0,0,0,0,0,2.0,0,acquired,intela
68,CA,37.54763,-122.307887,94403-1855,c:26128,San Mateo,San Mateo CA 94403-1855,Sana Security,1,1/1/2000,Still Operating,4/2/2007,4/2/2007,7.2548,7.2548,7.0055,7.0055,7,1,12000000,1,CA,1,0,0,0,0,security,0,0,0,0,0,0,0,0,0,1,c:26128,0,0,0,0,0,0,2.0,1,acquired,sana security
69,CA,37.790485,-122.40094,94104,c:2808,San Francisco,San Francisco CA 94104,Sportgenic,1,9/1/2005,Still Operating,1/1/2007,9/9/2008,1.3342,3.0247,3.0219,3.337,9,3,11489687,2,CA,1,0,0,0,0,advertising,0,0,0,0,1,0,0,0,0,0,c:2808,0,1,1,1,0,0,3.3333,1,acquired,sportgenic
70,CA,37.7870923,-122.3999719,94105,c:10581,San Francisco,San Francisco CA 94105,Lolapps,1,1/1/2008,Still Operating,9/5/2008,9/5/2008,0.6795,0.6795,2.9178,4.2274,15,1,4000000,3,CA,1,0,0,0,0,web,0,1,0,0,0,0,0,0,0,0,c:10581,0,0,1,0,0,0,3.0,1,acquired,lolapps
71,CA,37.3492097,-122.0326019,94087,c:190214,Sunnyvale,Sunnyvale CA 94087,Behavio,1,6/12/2012,Still Operating,6/1/2012,6/1/2012,-0.0301,-0.0301,0.13699999999999998,0.13699999999999998,3,1,355000,1,CA,1,0,0,0,0,software,1,0,0,0,0,0,0,0,0,0,c:190214,0,1,0,0,0,0,1.0,0,acquired,behavio
72,FL,28.098905,-82.400087,33626,c:1674,Tampa,Tampa FL 33626,Infinity Box,1,1/1/2006,Still Operating,1/1/2006,4/1/2006,0.0,0.2466,2.4164,5.3151,10,2,118000,3,FL,0,0,0,0,1,web,0,1,0,0,0,0,0,0,0,0,c:1674,0,1,0,0,0,0,1.5,1,acquired,infinity box
73,CA,37.779026,-122.40184,94103,c:170,San Francisco,San Francisco CA 94103,adBrite,1,1/1/2003,2/1/2001,9/1/2004,5/1/2012,1.6685,9.337,7.3808,10.474,17,4,40400000,3,CA,1,0,0,0,0,advertising,0,0,0,0,1,0,0,0,0,0,c:170,0,0,1,1,1,1,1.6667,1,acquired,adbrite
74,TX,32.9583632,-96.8215658,75001,c:27740,Dallas,Dallas TX 75001,Texert,0,1/1/2007,7/14/2008,10/21/2008,10/21/2008,1.8055,1.8055,3.0553530479896267,4.754422568093387,1,1,3000000,0,TX,0,0,0,1,0,software,1,0,0,0,0,0,0,0,0,0,c:27740,0,0,1,0,0,0,1.0,1,closed,texert
75,CA,37.54827,-121.988572,94538,c:46186,Fremont,Fremont CA 94538,Mendocino Software,0,1/1/2003,2/7/2008,9/12/2005,1/1/2007,2.6986,4.0027,1.0,1.0,2,2,19700000,1,CA,1,0,0,0,0,software,1,0,0,0,0,0,0,0,0,0,c:46186,1,0,0,1,0,0,4.0,1,closed,mendocino software
76,CA,37.354469,-121.990433,95051,c:43162,Santa Clara,Santa Clara CA 95051,QuikCycle,0,1/1/1998,1/1/2011,3/1/2007,3/12/2007,9.1671,9.1973,3.0553530479896267,4.754422568093387,0,2,17800000,0,CA,1,0,0,0,0,software,1,0,0,0,0,0,0,0,0,0,c:43162,1,0,0,0,0,0,1.0,1,closed,quikcycle
77,CA,37.779281,-122.419236,94107,c:43233,San Francisco,San Francisco CA 94107,Instagram,1,3/1/2010,Still Operating,3/5/2010,4/5/2012,0.011,2.0986,3.0904,3.7836,12,3,57500000,3,CA,1,0,0,0,0,photo_video,0,0,0,0,0,0,0,0,0,1,c:43233,0,1,1,1,0,0,4.0,1,acquired,instagram
78,NY,40.606061,-73.822331,10004,c:1498,New York,New York NY 10004,Motionbox,1,1/1/2006,Still Operating,9/1/2006,1/14/2009,0.6658,3.0384,2.0,5.0548,10,3,17200000,5,NY,0,1,0,0,0,games_video,0,0,0,0,0,1,0,0,0,0,c:1498,0,0,1,1,1,0,2.6667,1,acquired,motionbox
79,MA,42.3751,-71.105616,2138,c:31514,Cambridge,Cambridge MA 2138,AccelGolf,0,8/1/2008,5/1/2013,1/1/2008,12/4/2009,-0.5836,1.3425,0.0,1.5479,4,7,457282,2,MA,0,0,1,0,0,mobile,0,0,1,0,0,0,0,0,0,0,c:31514,1,1,0,0,0,0,1.0,1,closed,accelgolf
80,CA,37.779281,-122.419236,94105,c:58944,San Francisco,San Francisco CA 94105,MoPub,1,9/9/2010,Still Operating,9/1/2010,9/20/2012,-0.0219,2.0329,2.3151,3.1644,11,4,18500000,3,CA,1,0,0,0,0,mobile,0,0,1,0,0,0,0,0,0,0,c:58944,0,1,1,1,0,0,2.25,1,acquired,mopub
81,NJ,40.349274,-74.659296,8540,c:40197,Princeton,Princeton NJ 8540,DNP Green Technology,0,1/1/2008,8/24/2012,1/17/2010,1/17/2010,2.0466,2.0466,3.0553530479896267,4.754422568093387,2,1,12000000,0,NJ,0,0,0,0,1,cleantech,0,0,0,0,0,0,0,0,0,1,c:40197,0,0,1,0,0,0,6.0,1,closed,dnp green technology
82,CO,40.397761,-105.07498,80538,c:51023,Loveland,Loveland CO 80538,Abound Solar,0,1/1/2007,11/1/2012,7/6/2010,12/15/2010,3.5123,3.9562,3.9534,4.8356,5,2,510000000,3,CO,0,0,0,0,1,cleantech,0,0,0,0,0,0,0,0,0,1,c:51023,1,0,0,0,0,0,2.5,1,closed,abound solar
83,CA,37.420428,-122.090769,94043,c:13168,Mountain View,Mountain View CA 94043,Trovix,1,1/1/2002,Still Operating,12/7/2005,9/6/2006,3.9342,4.6822,4.0027,4.0027,3,2,18250000,1,CA,1,0,0,0,0,search,0,0,0,0,0,0,0,0,0,1,c:13168,0,0,1,1,0,0,2.5,1,acquired,trovix
84,NY,40.725435,-73.997395,10012,c:649,New York,New York NY 10012,Thumbplay,1,9/1/2004,Still Operating,10/30/2006,4/21/2010,2.1616,5.6384,3.8329,7.6932,13,4,41500019,5,NY,0,1,0,0,0,music,0,0,0,0,0,0,0,0,0,1,c:649,0,0,0,0,1,0,4.0,1,acquired,thumbplay
85,WV,39.388156,-77.885552,25430,c:52694,Kearneysville,Kearneysville WV 25430,Plethora Technology,0,1/1/2000,5/23/2009,6/9/2005,6/9/2005,5.4411,5.4411,3.0553530479896267,4.754422568093387,1,1,1000000,0,WV,0,0,0,0,1,software,1,0,0,0,0,0,0,0,0,0,c:52694,0,0,1,0,0,0,3.0,0,closed,plethora technology
86,CA,34.043948,-118.468204,90025,c:3080,Los Angeles,Los Angeles CA 90025,DailyStrength,1,4/1/2006,Still Operating,5/18/2007,5/18/2007,1.1288,1.1288,1.0,2.6767,7,1,5000000,2,CA,1,0,0,0,0,web,0,1,0,0,0,0,0,0,0,0,c:3080,0,0,1,0,0,0,1.0,1,acquired,dailystrength
87,MI,42.350749,-83.44458900000002,48187,c:28424,Canton,Canton MI 48187,Danotek Motion Technologies,0,1/1/2001,5/1/2013,11/19/2008,8/30/2011,7.8877,10.6658,0.4137,0.4137,2,3,42700000,1,MI,0,0,0,0,1,cleantech,0,0,0,0,0,0,0,0,0,1,c:28424,1,0,0,1,0,0,3.6667,1,closed,danotek motion technologies
88,CA,37.388869,-122.072353,94041,c:280611,Mountain View,Mountain View CA 94041,Yub,0,1/1/2013,1/1/2005,11/19/2013,11/19/2013,0.8822,0.8822,3.0553530479896267,4.754422568093387,7,1,12000000,0,CA,1,0,0,0,0,ecommerce,0,0,0,0,0,0,1,0,0,0,c:280611,1,0,0,0,0,0,9.0,1,closed,yub
89,WA,47.614018,-122.19655,98004,c:30537,Bellevue,Bellevue WA 98004,SNAPin Software,1,1/1/2003,Still Operating,7/11/2005,2/7/2006,2.526,3.1041,3.0027,9.126,5,2,22300000,2,WA,0,0,0,0,1,software,1,0,0,0,0,0,0,0,0,0,c:30537,0,0,0,1,1,0,4.5,1,acquired,snapin software
90,CA,37.406217,-121.976473,95054,c:14656,Santa Clara,Santa Clara CA 95054,Azuro,1,1/1/2002,Still Operating,1/1/2006,11/13/2009,4.0027,7.8712,0.1616,0.1616,5,2,10000000,1,CA,1,0,0,0,0,semiconductor,0,0,0,0,0,0,0,0,0,1,c:14656,1,0,0,1,0,0,4.0,1,acquired,azuro
91,DC,37.09024,-95.712891,20007,c:1766,Washington,Washington DC 20007,ARPU,0,5/1/2005,5/4/2010,7/1/2006,12/29/2009,1.1671,4.6658,3.0553530479896267,4.754422568093387,1,3,15564591,0,DC,0,0,0,0,1,advertising,0,0,0,0,1,0,0,0,0,0,c:1766,1,0,0,1,1,0,3.5,1,closed,arpu
92,CA,37.779281,-122.419236,94105,c:16938,San Francisco,San Francisco CA 94105,BookFresh,1,1/1/2007,Still Operating,7/28/2009,7/28/2009,2.5726,2.5726,2.4795,4.6685,7,1,500000,2,CA,1,0,0,0,0,web,0,1,0,0,0,0,0,0,0,0,c:16938,0,1,0,0,0,0,5.0,1,acquired,bookfresh
93,CA,37.779281,-122.419236,94110,c:83265,San Francisco,San Francisco CA 94110,Singly,1,12/21/2010,Still Operating,2/1/2011,4/23/2012,0.1151,1.3397,1.8329,2.6712,24,2,8950000,2,CA,1,0,0,0,0,analytics,0,0,0,0,0,0,0,0,0,1,c:83265,0,0,1,0,0,0,7.0,1,acquired,singly
94,NY,40.753881,-73.978852,10173,c:23136,New York,New York NY 10173,TxVia,1,1/1/2006,Still Operating,10/1/2007,10/26/2010,1.7479,4.8192,4.0027,4.8192,8,4,55350000,2,NY,0,1,0,0,0,finance,0,0,0,0,0,0,0,0,0,1,c:23136,0,0,1,1,1,1,4.0,1,acquired,txvia
95,CA,37.406914,-122.09037,94043,c:54066,Mountain View,Mountain View CA 94043,Blue Vector Systems,0,1/1/2002,8/31/2010,9/21/2005,9/21/2005,3.7233,3.7233,3.0553530479896267,4.754422568093387,1,1,4000000,0,CA,1,0,0,0,0,public_relations,0,0,0,0,0,0,0,0,0,1,c:54066,0,0,0,1,0,0,3.0,1,closed,blue vector systems
96,IL,41.878984,-87.637,60606,c:17219,Chicago,Chicago IL 60606,Open Kernel Labs,1,1/1/2006,Still Operating,9/13/2007,7/6/2012,1.6986,6.5151,3.2849,4.9315,3,5,10764323,3,IL,0,0,0,0,1,software,1,0,0,0,0,0,0,0,0,0,c:17219,1,0,1,0,0,0,2.0,1,acquired,open kernel labs
97,NJ,40.535316,-74.521435,8873,c:23234,Somerset,Somerset NJ 8873,Elanti Systems,0,1/1/2007,2/11/2012,5/29/2008,5/29/2008,1.4082,1.4082,0.0,0.0,1,1,5500000,1,NJ,0,0,0,0,1,software,1,0,0,0,0,0,0,0,0,0,c:23234,1,0,0,0,0,0,3.0,1,closed,elanti systems
98,CA,37.779281,-122.419236,94105,c:70586,San Francisco,San Francisco CA 94105,Astrid,1,1/1/2008,Still Operating,4/13/2012,4/13/2012,4.2849,4.2849,2.4164,5.5151,7,1,400000,2,CA,1,0,0,0,0,social,0,0,0,0,0,0,0,0,0,1,c:70586,0,1,0,0,0,0,3.0,1,acquired,astrid
99,CA,37.863464,-122.3153453,94710,c:26612,Berkeley,Berkeley CA 94710,Nordic Windpower,0,1/1/2007,4/10/2013,10/2/2007,1/5/2010,0.7507,3.0137,3.0553530479896267,4.754422568093387,3,3,54000000,0,CA,1,0,0,0,0,cleantech,0,0,0,0,0,0,0,0,0,1,c:26612,1,0,0,0,1,0,2.6667,1,closed,nordic windpower
100,GA,34.070958000000005,-84.274733,30009,c:57923,Alpharetta,Alpharetta GA 30009,Visiprise,0,1/1/1985,5/3/2009,10/17/2005,10/17/2005,20.8055,20.8055,3.0553530479896267,4.754422568093387,2,1,32000000,0,GA,0,0,0,0,1,software,1,0,0,0,0,0,0,0,0,0,c:57923,0,0,0,1,0,0,7.0,1,closed,visiprise
101,WA,39.78373,-100.445882,98104,c:58133,Seattle,Seattle WA 98104,Hubspan,1,1/1/2000,Still Operating,10/14/2005,10/14/2005,5.789,5.789,3.0553530479896267,4.754422568093387,1,1,13000000,0,WA,0,0,0,0,1,software,1,0,0,0,0,0,0,0,0,0,c:58133,0,0,0,0,0,1,4.0,1,acquired,hubspan
