,state_code,latitude,longitude,zip_code,id,city,Unnamed: 6,name,labels,founded_at,closed_at,first_funding_at,last_funding_at,age_first_funding_year,age_last_funding_year,age_first_milestone_year,age_last_milestone_year,relationships,funding_rounds,funding_total_usd,milestones,state_code.1,is_CA,is_NY,is_MA,is_TX,is_otherstate,category_code,is_software,is_web,is_mobile,is_enterprise,is_advertising,is_gamesvideo,is_ecommerce,is_biotech,is_consulting,is_othercategory,object_id,has_VC,has_angel,has_roundA,has_roundB,has_roundC,has_roundD,avg_participants,is_top500,status,link_name,company_description
714,CA,37.2690782,-121.9559995,95008,c:16181,Campbell,Campbell CA 95008,ONStor,1,1/1/2000,Still Operating,6/2/2005,4/18/2008,5.4219,8.3014,8.0055,8.0055,6,3,65800000,1,CA,1,0,0,0,0,network_hosting,0,0,0,0,0,0,0,0,0,1,c:16181,1,0,0,0,0,1,4.6667,1,acquired,onstor,"ONStor provides storage area network file service solutions for storage area networks that consolidate, manage and scale storage resources."
715,NJ,40.477604,-74.626824,8844,c:173118,Hillsborough,Hillsborough NJ 8844,Relationship Analytics,0,8/1/2012,8/1/2013,4/5/2013,5/16/2013,0.6767,0.789,0,0,2,2,125000,1,NJ,0,0,0,0,1,analytics,0,0,0,0,0,0,0,0,0,1,c:173118,0,1,0,0,0,0,1,0,closed,relationship analytics,RelationshipManager is an ERM platform that provides analytical tools in order to improve relationship networks.
716,VA,39.050108,-77.40082,20165,c:1607,Potomac Falls,Potomac Falls VA 20165,Summize,1,11/1/2006,Still Operating,6/1/2007,6/1/2007,0.5808,0.5808,-0.5041,3.8301,5,1,750000,3,VA,0,0,0,0,1,search,0,0,0,0,0,0,0,0,0,1,c:1607,0,1,0,0,0,0,2,1,acquired,summize,Summize US is a conversational search engine that provides listings of the most reviewed and liked products and services.
717,GA,33.749099,-84.390185,30305,c:78759,Atlanta,Atlanta GA 30305,JouleX,1,1/1/2009,Still Operating,6/10/2011,6/10/2011,2.4384,2.4384,2.3288,2.4384,10,1,17000000,2,GA,0,0,0,0,1,enterprise,0,0,0,1,0,0,0,0,0,0,c:78759,1,0,0,0,0,0,5,1,acquired,joulex,"JouleX offers products for sustainable energy management that enables enterprises to monitor, analyze and control energy consumption."
718,CA,37.548415,-122.315636,94403,c:3562,San Mateo,San Mateo CA 94403,Etelos,0,5/1/1999,1/1/2013,9/30/2009,5/29/2012,10.4247,13.0877,8.9808,12.7233,4,3,4087500,3,CA,1,0,0,0,0,enterprise,0,0,0,1,0,0,0,0,0,0,c:3562,1,1,0,0,0,0,1,0,closed,etelos,Etelos develops on-demand browser-based applications.
719,CA,34.491118,-119.808096,93105,c:38655,Santa Barbara,Santa Barbara CA 93105,Make It Work,0,1/1/1995,6/1/2012,11/15/2005,11/15/2005,10.8795,10.8795,15.4986,15.4986,3,1,1000000,1,CA,1,0,0,0,0,hardware,0,0,0,0,0,0,0,0,0,1,c:38655,0,0,1,0,0,0,2,1,closed,make it work,"Make It Work provides computer repair, storage, and computer networking services in California, USA."
720,TX,30.280148,-97.749908,78701,c:52406,Austin,Austin TX 78701,MapMyFitness,1,2/8/2007,Still Operating,1/1/2007,6/19/2013,-0.1041,6.3644,5.4822,6.7699,13,5,23500000,3,TX,0,0,0,1,0,health,0,0,0,0,0,0,0,0,0,1,c:52406,1,0,1,1,1,0,1.75,1,acquired,mapmyfitness,MapMyFitness operates a suite of fitness-oriented websites and associated mobile applications.
721,CA,37.7776778,-122.3921102,94107,c:2178,San Francisco,San Francisco CA 94107,What They Like,0,8/29/2007,10/21/2011,8/29/2007,8/29/2007,0,0,3.055353048,4.754422568,2,1,990000,0,CA,1,0,0,0,0,web,0,1,0,0,0,0,0,0,0,0,c:2178,0,0,1,0,0,0,2,0,closed,what they like,What They Like provides parents with a variety of media guides and resources for their children.
722,AZ,33.426418,-111.9396,85281,c:10864,Tempe,Tempe AZ 85281,FetchBack,1,4/1/2007,Still Operating,1/1/2008,1/1/2008,0.7534,0.7534,3.1699,4.6247,13,1,1000000,2,AZ,0,0,0,0,1,advertising,0,0,0,0,1,0,0,0,0,0,c:10864,0,0,1,0,0,0,3,1,acquired,fetchback,FetchBack provides retargeting services to companies by showing advertisements to consumers who previously visited their website.
723,MA,42.364367,-71.078978,2142,c:934,Cambridge,Cambridge MA 2142,Sermo,1,1/1/2006,Still Operating,9/1/2006,2/17/2011,0.6658,5.1315,2.7479,6.0027,15,4,41000000,2,MA,0,0,1,0,0,health,0,0,0,0,0,0,0,0,0,1,c:934,1,0,1,1,1,0,1.75,1,acquired,sermo,SERMO is the social network for doctors.
724,OR,45.3774456,-122.7569561,97062,c:23251,Tualatin,Tualatin OR 97062,Wi-Chi,0,1/1/2008,12/10/2011,5/15/2008,5/15/2008,0.3699,0.3699,3.055353048,4.754422568,3,1,7000000,0,OR,0,0,0,0,1,semiconductor,0,0,0,0,0,0,0,0,0,1,c:23251,0,0,1,0,0,0,1,1,closed,wi-chi,Wi-Chi develops and manufacturers effective nano inverters for solar photovoltaic systems.
725,MA,42.3624253,-71.116031,2139,c:25600,Cambridge,Cambridge MA 2139,Alnara Pharmaceuticals,1,1/1/2008,Still Operating,10/30/2008,1/28/2010,0.8301,2.0767,1.0027,1.0027,4,2,55000000,1,MA,0,0,1,0,0,biotech,0,0,0,0,0,0,0,1,0,0,c:25600,0,0,1,1,0,0,2,1,acquired,alnara pharmaceuticals,Alnara Pharmaceuticals develops and commercializes orally-delivered protein therapeutics for the treatment of metabolic diseases.
726,CA,37.785053,-122.287295,60606,c:46943,Chicago,Chicago CA 60606,Braintree,1,10/1/2007,Still Operating,6/29/2011,9/17/2012,3.7452,4.9671,4.6822,4.8384,10,2,69000000,2,CA,1,0,0,0,0,software,1,0,0,0,0,0,0,0,0,0,c:46943,0,0,1,1,0,0,3.5,1,acquired,braintree,Braintree's payment platform provides all the tools online and mobile businesses need to accept payments.
727,CA,37.421692,-121.894156,95035-5444,c:15829,Milpitas,Milpitas CA 95035-5444,Virident Systems,1,1/1/2006,Still Operating,5/1/2007,1/28/2013,1.3288,7.0795,4.874,7.0055,25,8,129677153,3,CA,1,0,0,0,0,enterprise,0,0,0,1,0,0,0,0,0,0,c:15829,1,0,1,1,1,1,3,1,acquired,virident systems,Virident Systems is a computer company designing and building enterprise-class data storage devices.
728,CA,37.502169,-122.217727,94063,c:25737,Redwood City,Redwood City CA 94063,Pearl Therapeutics,1,1/1/2006,Still Operating,7/3/2008,4/1/2013,2.5041,7.2521,3.055353048,4.754422568,4,6,232000100,0,CA,1,0,0,0,0,biotech,0,0,0,0,0,0,0,1,0,0,c:25737,0,0,1,0,1,1,3.6667,1,acquired,pearl therapeutics,"Pearl develops a combination of products for the treatment of respiratory diseases, including chronic obstructive pulmonary disease."
729,CA,37.388869,-122.072353,94041,c:28483,Mountain View,Mountain View CA 94041,Lexity,1,8/1/2009,Still Operating,9/1/2009,3/3/2011,0.0849,1.5863,2.1151,4,5,2,5700000,3,CA,1,0,0,0,0,enterprise,0,0,0,1,0,0,0,0,0,0,c:28483,0,1,1,0,0,0,4,1,acquired,lexity,Lexity is a PaaS-based e-commerce cloud platform providing an own app store for online retailers to manage information with a single click.
730,MA,42.276316,-71.419229,1702,c:21040,Framingham,Framingham MA 1702,Diligent Technologies,1,1/1/2002,Still Operating,8/21/2007,8/21/2007,5.6384,5.6384,4.2493,4.2493,3,1,10500000,1,MA,0,0,1,0,0,security,0,0,0,0,0,0,0,0,0,1,c:21040,0,0,0,0,0,1,4,1,acquired,diligent technologies,Diligente Technologies provides recruiting and staffing as well as IT consulting services for organizations.
731,NY,41.019264,-73.683462,10573,c:15458,Rye Brook,Rye Brook NY 10573,eBillme,0,10/1/2004,6/15/2012,9/20/2006,9/1/2008,1.9699,3.9205,3.055353048,4.754422568,2,2,23000000,0,NY,0,1,0,0,0,ecommerce,0,0,0,0,0,0,1,0,0,0,c:15458,1,0,0,0,0,0,3,1,closed,ebillme,eBillme is an online payments solution that extends online banking to the merchant’s checkout process.
732,WA,47.676378,-122.122155,98052,c:1590,Redmond,Redmond WA 98052,Smilebox,1,8/28/2000,Still Operating,2/1/2006,2/23/2010,5.4329,9.4959,3.055353048,4.754422568,13,3,14000000,0,WA,0,0,0,0,1,photo_video,0,0,0,0,0,0,0,0,0,1,c:1590,0,0,1,1,0,0,3,1,acquired,smilebox,"Smilebox enables people to tell the stories of their lives—big and small—with fun, simple and custom eCards, slideshows, invitations & more."
733,CA,37.536402,-122.325129,94403,c:5988,San Mateo,San Mateo CA 94403,B-hive Networks,1,1/1/2005,Still Operating,8/25/2006,8/25/2006,1.6466,1.6466,3.055353048,4.754422568,4,2,7500000,0,CA,1,0,0,0,0,software,1,0,0,0,0,0,0,0,0,0,c:5988,0,1,1,0,0,0,2,1,acquired,b-hive networks,"B-hive Networks provides infrastructure management services for retailers, financial organizations and web companies."
734,NY,40.650104,-73.949582,11211,c:34549,Brooklyn,Brooklyn NY 11211,Hot Potato,1,1/1/2009,Still Operating,11/25/2009,11/25/2009,0.8986,0.8986,0.4137,1.6329,12,1,1420000,3,NY,0,1,0,0,0,social,0,0,0,0,0,0,0,0,0,1,c:34549,0,0,1,0,0,0,16,1,acquired,hot potato,Hot Potato is a social media agency that provides event-based services.
735,WA,47.6257402,-122.3581623,98119,c:19538,Seattle,Seattle WA 98119,Kashless,0,9/1/2008,12/25/2010,10/29/2008,2/4/2011,0.1589,2.4274,-0.1699,2.2137,1,2,9000000,2,WA,0,0,0,0,1,ecommerce,0,0,0,0,0,0,1,0,0,0,c:19538,1,0,1,0,0,0,1,1,closed,kashless,Kashless is an online marketplace to find and redistribute used items to local communities for free.
736,PA,40.245664,-74.845997,19067,c:29605,Yardley,Yardley PA 19067,Three Screen Games,0,1/1/2009,3/14/2012,10/7/2009,10/7/2009,0.7644,0.7644,3.055353048,4.754422568,3,1,500000,0,PA,0,0,0,0,1,games_video,0,0,0,0,0,1,0,0,0,0,c:29605,1,0,0,0,0,0,1,1,closed,three screen games,Three Screen Games offers FanGamb which is a sport betting competition between friends to create or join a league and play by placing bets.
737,CA,37.388869,-122.072353,94041,c:148139,Mountain View,Mountain View CA 94041,LaunchGram,1,1/10/2012,Still Operating,1/23/2012,10/1/2012,0.0356,0.726,0.474,0.9205,4,2,70000,2,CA,1,0,0,0,0,news,0,0,0,0,0,0,0,0,0,1,c:148139,0,1,0,0,0,0,1,1,acquired,launchgram,LaunchGram is a web platform enabling users to follow and get updates on products and initiatives that have yet to be released or completed.
738,CA,33.09568,-117.244034,92009,c:904,Carlsbad,Carlsbad CA 92009,BrightQube,0,10/1/2006,10/1/2009,5/1/2007,5/27/2008,0.5808,1.6548,3.055353048,4.754422568,3,2,850000,0,CA,1,0,0,0,0,ecommerce,0,0,0,0,0,0,1,0,0,0,c:904,0,1,1,0,0,0,1,1,closed,brightqube,BrightQube is an image marketplace with image viewing tools that are optimized for browsing large collections of photos.
739,CA,34.019657,-118.487549,90401,c:64694,Santa Monica,Santa Monica CA 90401,ServiceMesh,1,1/1/2008,Still Operating,11/16/2011,11/16/2011,3.8767,3.8767,3.0027,5.8329,9,1,15000000,2,CA,1,0,0,0,0,enterprise,0,0,0,1,0,0,0,0,0,0,c:64694,1,0,0,0,0,0,1,1,acquired,servicemesh,"ServiceMesh provides an enterprise cloud management platform that enables on-demand, self-service IT operating models."
740,CA,37.788266,-122.403865,94108,c:1923,San Francisco,San Francisco CA 94108,Lookery,1,8/1/2007,Still Operating,2/7/2008,9/4/2008,0.5205,1.0959,0.2521,2.0575,12,2,3150000,2,CA,1,0,0,0,0,web,0,1,0,0,0,0,0,0,0,0,c:1923,0,1,1,0,0,0,11.5,1,acquired,lookery,Lookery provides demographic marketing services that enable social networks to distribute their data as targeting information.
741,CA,37.779281,-122.419236,94109,c:152560,San Francisco,San Francisco CA 94109,Wantful,0,1/1/2011,9/6/2013,3/20/2012,3/20/2012,1.2164,1.2164,1.4164,2.6822,6,1,5500000,2,CA,1,0,0,0,0,ecommerce,0,0,0,0,0,0,1,0,0,0,c:152560,0,0,1,0,0,0,8,1,closed,wantful,Wantful is an online gift-giving service that offers recommendations based on a recipient's style and interests.
742,CA,38.021489,-122.519998,94903,c:71639,San Rafael,San Rafael CA 94903,Zep Solar,1,1/1/2009,Still Operating,11/20/2013,11/20/2013,4.8877,4.8877,3.2877,3.2877,8,1,10571182,1,CA,1,0,0,0,0,cleantech,0,0,0,0,0,0,0,0,0,1,c:71639,0,0,1,0,0,0,1,0,acquired,zep solar,"Zep Solar, Inc. is an innovative manufacturer of new-generation PV mounting technology based in San Rafael, CA ."
743,CA,34.102827,-118.32999,90028,c:65601,Hollywood,Hollywood CA 90028,Help Me Rent Magazine,0,1/1/2010,5/1/2012,8/1/2010,8/1/2010,0.5808,0.5808,3.055353048,4.754422568,13,1,500000,0,CA,1,0,0,0,0,real_estate,0,0,0,0,0,0,0,0,0,1,c:65601,0,1,0,0,0,0,1,0,closed,help me rent magazine,"Help-Me-Rent Magazine was a web-powered publication that connected owners and renters, to eliminate barriers in the rental search process."
744,CA,37.872222,-122.268403,94710,c:2351,Berkeley,Berkeley CA 94710,MOG,1,6/1/2005,Still Operating,5/4/2006,2/26/2010,0.9233,4.7425,0.6712,7.7671,12,7,24900000,3,CA,1,0,0,0,0,music,0,0,0,0,0,0,0,0,0,1,c:2351,1,1,1,0,0,0,3,1,acquired,mog,"MOG, a next-generation music media company, offers on-demand streaming music services through multi-platform access to a library of songs."
745,CA,34.147645,-118.144478,91105,c:6854,Pasadena,Pasadena CA 91105,Loud3r,0,9/1/2007,7/15/2012,6/5/2009,12/28/2009,1.7616,2.326,0.8767,3.0274,12,2,3529175,3,CA,1,0,0,0,0,web,0,1,0,0,0,0,0,0,0,0,c:6854,1,0,1,0,0,0,1,0,closed,loud3r,"Loud3r is a scalable content aggregation platform that finds, filters and publishes the best news, blogs, photos and videos."
746,NY,40.7418877,-74.0047466,10011,c:25306,New York,New York NY 10011,Oyster.com,1,3/1/2008,Still Operating,3/1/2008,10/11/2012,0,4.6164,3.2904,5.2685,15,4,23400000,3,NY,0,1,0,0,0,travel,0,0,0,0,0,0,0,0,0,1,c:25306,0,0,1,1,1,0,2.25,1,acquired,oyster.com,Oyster.com is a travel-based website that offers hotel reviews and pictures taken by industry experts.
747,CA,37.4155698,-121.9486567,95134,c:10915,San Jose,San Jose CA 95134,LogLogic,1,1/1/2002,Still Operating,5/26/2009,5/26/2009,7.4027,7.4027,7.4,11.874,15,1,8800000,3,CA,1,0,0,0,0,security,0,0,0,0,0,0,0,0,0,1,c:10915,0,0,0,0,0,1,5,1,acquired,loglogic,LogLogic provides a scalable log and security intelligence platform for the enterprise and cloud.
748,NY,40.728425,-73.999882,10012,c:70661,New York,New York NY 10012,StyleTrek,0,2/1/2010,1/1/2012,2/1/2010,2/1/2010,0,0,0.3288,0.3288,2,1,1500000,1,NY,0,1,0,0,0,fashion,0,0,0,0,0,0,0,0,0,1,c:70661,0,0,0,0,0,0,6,1,closed,styletrek,StyleTrek.com is a crowdsourced e-commerce platform selling products of independent designers via various patented brands.
749,CA,32.988247,-117.080769,92128,c:9668,San Diego,San Diego CA 92128,Sequoia Communications,0,1/1/2000,1/1/2011,11/9/2004,6/2/2009,4.8603,9.4247,3.055353048,4.754422568,3,7,74000000,0,CA,1,0,0,0,0,semiconductor,0,0,0,0,0,0,0,0,0,1,c:9668,1,0,0,0,1,1,2,1,closed,sequoia communications,Sequoia Communications is a fabless RF semiconductor company setting new benchmarks in multimode design and integration.
750,OR,45.520247,-122.674195,97201,c:2434,Portland,Portland OR 97201,SnapNames,1,1/1/2000,Still Operating,6/1/2001,12/31/2001,1.4164,2,7.0055,11.4219,3,3,8800000,2,OR,0,0,0,0,1,network_hosting,0,0,0,0,0,0,0,0,0,1,c:2434,0,0,1,1,0,0,1,0,acquired,snapnames,"SnapNames is a domain name auction site for previously registered domain names, providing a back-ordering technology."
751,CA,37.775228,-122.39963,94107,c:522,San Francisco,San Francisco CA 94107,Simple Star,1,1/1/2001,Still Operating,8/1/2003,8/10/2005,2.5808,4.6082,0.5808,10.2219,3,2,7100000,3,CA,1,0,0,0,0,web,0,1,0,0,0,0,0,0,0,0,c:522,0,1,1,0,0,0,1.5,1,acquired,simple star,Simplestar develops and distributes memory sharing software and services.
752,MA,42.3751,-71.105616,2142,c:1165,Cambridge,Cambridge MA 2142,StyleFeeder,1,5/3/2006,Still Operating,9/1/2007,5/1/2009,1.3315,2.9973,2.1616,5.9616,8,3,3500000,6,MA,0,0,1,0,0,ecommerce,0,0,0,0,0,0,1,0,0,0,c:1165,1,1,1,0,0,0,1.6667,1,acquired,stylefeeder,"StyleFeeder was a social shopping service featuring a powerful recommendation algorithm, acquired by Time Inc. in 2010"
753,CA,37.36883,-122.03635,94089,c:80433,Sunnyvale,Sunnyvale CA 94089,FlashSoft,1,11/25/2009,Still Operating,6/28/2011,6/28/2011,1.589,1.589,1.1863,2.5452,6,1,3000000,2,CA,1,0,0,0,0,software,1,0,0,0,0,0,0,0,0,0,c:80433,0,0,1,0,0,0,2,1,acquired,flashsoft,"FlashSoft uses caching technology to deliver the performance of enterprise flash with no disruption to applications, servers or storage."
754,NY,42.961748,-78.870914,14217,c:79456,Kenmore,Kenmore NY 14217,TrustDegrees,0,3/1/2011,1/1/2012,4/17/2011,6/9/2011,0.1288,0.274,0.3068,0.3068,5,2,11000,1,NY,0,1,0,0,0,web,0,1,0,0,0,0,0,0,0,0,c:79456,0,1,0,0,0,0,1,0,closed,trustdegrees,TrustMob is an internet reputation system aggregating users’ activities across the web.
755,CA,33.553278,-117.6779,92677,c:17282,Laguna Niguel,Laguna Niguel CA 92677,Symwave,1,1/1/2001,Still Operating,7/18/2007,8/6/2009,6.5452,8.6,5.0027,5.0027,4,3,26200000,1,CA,1,0,0,0,0,semiconductor,0,0,0,0,0,0,0,0,0,1,c:17282,1,0,0,0,1,0,2.5,1,acquired,symwave,Symwave develops analog- and mixed-signal integrated circuits and systems for applications requiring high-speed data transfer capabilities.
756,CA,37.398022,-122.049143,94043,c:3610,Mountain View,Mountain View CA 94043,Clearwell Systems,1,12/6/2004,5/19/2011,4/4/2006,8/22/2007,1.326,2.7096,4.3699,6.463,6,2,29000000,3,CA,1,0,0,0,0,software,1,0,0,0,0,0,0,0,0,0,c:3610,0,0,0,1,1,0,2.5,1,acquired,clearwell systems,"Clearwell Systems offers an e-discovery platform and app that enables companies to manage their legal, regulatory and investigative matters."
757,CA,37.400945,-122.111318,94040-1309,c:30667,Mountain View,Mountain View CA 94040-1309,Impeva,0,1/1/2004,3/16/2012,11/3/2008,11/3/2008,4.8438,4.8438,3.055353048,4.754422568,2,1,10000000,0,CA,1,0,0,0,0,software,1,0,0,0,0,0,0,0,0,0,c:30667,0,0,0,1,0,0,2,0,closed,impeva,"Cubic Global Tracking Solutions( previously known as Impeva Labs Inc.), is a provider of global asset management, tracking, monitoring and security solutions."
758,CA,32.833501,-117.26162,92037,c:59054,La Jolla,La Jolla CA 92037,Nettle,0,10/4/2010,1/1/2012,8/11/2011,8/11/2011,0.8521,0.8521,0,2.9425,3,1,500000,3,CA,1,0,0,0,0,web,0,1,0,0,0,0,0,0,0,0,c:59054,0,1,0,0,0,0,3,1,closed,nettle,"Nettle develops MovieGoer, a local social mobile app for moviegoers."
759,CA,37.487259,-122.232217,94063,c:22721,Redwood City,Redwood City CA 94063,CubeTree,1,1/1/2008,Still Operating,2/1/2008,11/2/2009,0.0849,1.8384,1.4164,2.337,3,3,11500000,3,CA,1,0,0,0,0,enterprise,0,0,0,1,0,0,0,0,0,0,c:22721,0,1,1,1,0,0,1.5,1,acquired,cubetree,"CubeTree, a social networking platform, offers an enterprise collaboration suite for companies creating private and secure social networks."
760,TX,30.2734822,-97.7588828,78703,c:22168,Austin,Austin TX 78703,Infochimps,1,7/14/2009,Still Operating,9/14/2010,6/4/2013,1.1699,3.8932,2.3014,3.4301,8,5,5350000,3,TX,0,0,0,1,0,enterprise,0,0,0,1,0,0,0,0,0,0,c:22168,0,1,1,0,0,0,3,1,acquired,infochimps,"Infochimps is a cloud service that streamlines building and managing complex big data environments, and distills analytics."
761,CA,37.787126,-122.39783,94105,c:1205,San Francisco,San Francisco CA 94105,Songbird,0,2/1/2006,6/28/2013,10/2/2006,1/27/2010,0.6658,3.989,5.0849,7.3699,27,3,11015719,4,CA,1,0,0,0,0,mobile,0,0,1,0,0,0,0,0,0,0,c:1205,1,0,1,0,0,0,2,1,closed,songbird,"Songbird offers a social music discovery app for Android and iOS devices, and desktops."
762,CA,37.779281,-122.419236,94103,c:23139,San Francisco,San Francisco CA 94103,SimpleGeo,1,5/1/2009,Still Operating,11/10/2009,5/18/2010,0.5288,1.0466,1.2959,3.3781,30,3,9807367,3,CA,1,0,0,0,0,advertising,0,0,0,0,1,0,0,0,0,0,c:23139,0,1,1,0,0,0,8.6667,1,acquired,simplegeo,SimpleGeo offers an API that allows developers to build location-aware applications for mobile devices.
763,CA,37.779281,-122.419236,94110,c:51379,San Francisco,San Francisco CA 94110,1000memories,1,7/1/2010,Still Operating,1/1/2010,2/16/2011,-0.4959,0.6301,0.589,3.011,8,2,2535000,2,CA,1,0,0,0,0,web,0,1,0,0,0,0,0,0,0,0,c:51379,0,1,1,0,0,0,5,1,acquired,1000memories,"1000Memories allows people to organize, share, and discover old photos and memories and set up family trees."
764,TX,32.958634,-96.823641,75001,c:23107,Addison,Addison TX 75001,SensorLogic,1,1/1/2002,Still Operating,6/19/2007,12/13/2010,5.4658,8.9534,8.8384,8.9534,4,3,19000000,2,TX,0,0,0,1,0,enterprise,0,0,0,1,0,0,0,0,0,0,c:23107,1,0,0,1,1,0,5.3333,1,acquired,sensorlogic,SensorLogic offers a cloud application development platform that helps organizations build and deploy next-generation M2M apps.
765,CA,37.388869,-122.072353,94041,c:50162,Mountain View,Mountain View CA 94041,TouristEye,1,2/1/2010,Still Operating,2/1/2010,11/6/2012,0,2.7644,1.1616,1.1616,4,3,475000,1,CA,1,0,0,0,0,travel,0,0,0,0,0,0,0,0,0,1,c:50162,0,1,0,0,0,0,4,0,acquired,touristeye,TouristEye is a mobile application that enables users to collect destinations and activities to plan their trips and weekend getaways.
766,NY,40.730646,-73.986614,10005,c:15470,New York,New York NY 10005,Oberon Media,1,1/1/2003,Still Operating,10/6/2008,11/10/2010,5.7671,7.863,9.2575,9.2575,16,2,36000000,1,NY,0,1,0,0,0,games_video,0,0,0,0,0,1,0,0,0,0,c:15470,1,0,0,1,0,0,1,1,acquired,oberon media,"Oberon Media is a multi-platform firm delivering casual games solutions across online, social, mobile, interactive TV and retail categories."
767,CA,37.662431,-121.874679,94588,c:58237,Pleasanton,Pleasanton CA 94588,Arroyo Video Solutions,1,1/1/2002,Still Operating,3/2/2005,3/2/2005,3.1671,3.1671,3.055353048,4.754422568,4,1,12000000,0,CA,1,0,0,0,0,games_video,0,0,0,0,0,1,0,0,0,0,c:58237,0,0,0,0,1,0,5,1,acquired,arroyo video solutions,Arroyo Video Solutions (now acquired by Cisco) is a video on demand company based in the United States.
768,CA,39.78373,-100.445882,92130-2042,c:25001,San Diego,San Diego CA 92130-2042,Aragon Pharmaceuticals,1,1/1/2009,Still Operating,5/27/2009,10/4/2012,0.4,3.7589,3,3,15,4,122000000,1,CA,1,0,0,0,0,biotech,0,0,0,0,0,0,0,1,0,0,c:25001,0,0,1,1,1,1,2.5,1,acquired,aragon pharmaceuticals,Aragon Pharmaceuticals develops therapeutics for the treatment of hormone-resistant cancers such as prostate and breast cancer.
769,NY,40.730646,-73.986614,10005,c:163104,New York,New York NY 10005,#waywire,1,6/1/2012,Still Operating,6/30/2012,6/30/2012,0.0795,0.0795,0.5014,1.3781,8,1,1750000,2,NY,0,1,0,0,0,news,0,0,0,0,0,0,0,0,0,1,c:163104,0,0,0,0,0,0,5,1,acquired,#waywire,"Waywire is an online community focused on social inspiration, leading voices, and syndicated and community-created video content."
770,NY,40.729839,-73.991781,10003,c:43263,New York,New York NY 10003,Feedtrace,1,8/10/2009,Still Operating,3/1/2010,3/1/2010,0.5562,0.5562,-0.0247,1.9288,3,1,130000,2,NY,0,1,0,0,0,web,0,1,0,0,0,0,0,0,0,0,c:43263,0,1,0,0,0,0,1,0,acquired,feedtrace,Feedtrace is a personal recommendation engine for real-time content.
771,OH,41.505161,-81.693445,44131,c:37173,Cleveland,Cleveland OH 44131,Five Star Technologies,0,1/1/1999,2/2/2012,11/30/2006,11/24/2009,7.9178,10.9041,3.055353048,4.754422568,4,3,13222860,0,OH,0,0,0,0,1,other,0,0,0,0,0,0,0,0,0,1,c:37173,1,0,0,0,0,0,3,1,closed,five star technologies,"Five Star Technologies develops and markets printable pastes and inks used in displays, photovoltaic and microelectronic packaging."
772,IN,39.914281,-86.076478,46250,c:12179,Indianapolis,Indianapolis IN 46250,Vontoo,0,1/1/2005,10/31/2012,2/17/2009,2/24/2011,4.1315,6.1507,5.5699,6.1096,10,2,2192000,3,IN,0,0,0,0,1,public_relations,0,0,0,0,0,0,0,0,0,1,c:12179,1,0,0,1,0,0,3,0,closed,vontoo,"Vontoo, a marketing communication platform, enables companies to send and track voice messages tailored to the recipients' interests."
773,MA,42.3751,-71.105616,2142,c:42501,Cambridge,Cambridge MA 2142,Allurent,1,1/1/2005,Still Operating,2/22/2010,2/22/2010,5.1452,5.1452,2,2,4,1,2000000,1,MA,0,0,1,0,0,web,0,1,0,0,0,0,0,0,0,0,c:42501,1,0,0,0,0,0,1,1,acquired,allurent,Allurent is a hosted SaaS-based solution providing retailers with interactive merchandising widgets to increase site conversion.
774,CA,37.5455355,-122.3208802,94608,c:15017,Emeryville,Emeryville CA 94608,Quantivo,1,1/1/2005,Still Operating,1/9/2008,12/16/2009,3.0219,4.9589,6.5836,6.6822,11,2,9400000,2,CA,1,0,0,0,0,analytics,0,0,0,0,0,0,0,0,0,1,c:15017,0,0,1,0,0,0,2,1,acquired,quantivo,Quantivo offers customer-centric intelligence and analytics that enable marketers to gain business insights and uncover monetizable trends.
775,CA,37.431091,-122.099263,94043,c:17320,Mountain View,Mountain View CA 94043,Crossing Automation,1,1/1/2003,Still Operating,5/5/2008,3/23/2010,5.3452,7.2274,3.055353048,4.754422568,2,4,13045000,0,CA,1,0,0,0,0,semiconductor,0,0,0,0,0,0,0,0,0,1,c:17320,0,0,1,1,0,0,2,1,acquired,crossing automation,Crossing Automation designed a system to facilitate the handing and moving of large silicon wafers inside a chip factory. 
776,CA,25.752358,-80.25468,94104,c:1716,San Francisco,San Francisco CA 94104,Scrapblog,1,1/1/2006,Still Operating,3/6/2006,2/5/2010,0.1753,4.0986,0.7342,5.0493,8,4,10000000,3,CA,1,0,0,0,0,web,0,1,0,0,0,0,0,0,0,0,c:1716,0,0,1,1,1,0,1.25,1,acquired,scrapblog,"Scrapblog is a web-based multimedia scrapbook editor enabling users to combine images, audio, and video onto 'scrapblogs.'"
777,CA,37.558245,-122.302654,94402,c:6356,San Mateo,San Mateo CA 94402,Yield Software,1,1/1/2007,Still Operating,6/4/2008,6/4/2008,1.4247,1.4247,1,1,7,1,6000000,1,CA,1,0,0,0,0,advertising,0,0,0,0,1,0,0,0,0,0,c:6356,0,0,0,1,0,0,2,1,acquired,yield software,"Yield Software offers a web marketing suite that leverages natural search, paid search, and landing page optimization."
778,PA,40.039353,-76.307448,17603,c:7163,Lancaster,Lancaster PA 17603,FlyCast,0,1/1/2006,1/1/2013,1/1/2008,7/22/2009,2,3.5562,4.5699,4.5699,3,2,2100000,1,PA,0,0,0,0,1,mobile,0,0,1,0,0,0,0,0,0,0,c:7163,1,1,0,0,0,0,2,0,closed,flycast,"FlyCast, Inc. operates as a provider of an application that offers streamed entertainment to mobile devices"
779,WA,39.78373,-100.445882,98104,c:46835,Seattle,Seattle WA 98104,Off & Away,1,12/1/2009,Still Operating,5/3/2010,10/21/2010,0.4192,0.8877,0.0849,1.863,3,2,3250000,3,WA,0,0,0,0,1,travel,0,0,0,0,0,0,0,0,0,1,c:46835,1,0,1,0,0,0,1,1,acquired,off & away,Off & Away is focused on offering exceptional travel experiences in fun and unique ways.
780,CA,37.3969138,-121.8939054,95131,c:18027,San Jose,San Jose CA 95131,CypherMax,0,1/1/2000,9/10/2012,7/27/2006,2/25/2007,6.5726,7.1562,3.055353048,4.754422568,1,3,148000000,0,CA,1,0,0,0,0,hardware,0,0,0,0,0,0,0,0,0,1,c:18027,1,0,0,1,0,0,3.5,1,closed,cyphermax,CipherMax provides storage security solutions for information assets and achieving compliance with government regulations.
781,CA,34.185043,-118.878852,91360,c:17634,Thousand Oaks,Thousand Oaks CA 91360,Nexsan,1,1/1/2000,Still Operating,12/1/2003,4/18/2009,3.9178,9.3014,10.7507,10.7507,10,2,24500000,1,CA,1,0,0,0,0,hardware,0,0,0,0,0,0,0,0,0,1,c:17634,1,0,1,0,0,0,2,1,acquired,nexsan,Nexsan provides energy efficient disk-based storage systems designed for storing and archiving information.
782,UT,40.233844,-111.658534,84087,c:47341,Provo,Provo UT 84087,Tipping Bucket,0,4/8/2009,1/1/2012,4/1/2009,3/1/2010,-0.0192,0.8959,1.063,1.063,4,2,72000,1,UT,0,0,0,0,1,enterprise,0,0,0,1,0,0,0,0,0,0,c:47341,0,1,0,0,0,0,1,0,closed,tipping bucket,"Tipping Bucket is a crowd-sourced venture charity enabling catalytic capital and funding via media to non-profits, businesses, and startups."
783,CA,37.416597,-122.154064,94304,c:42610,Palo Alto,Palo Alto CA 94304,Qlusters,0,1/1/2001,9/11/2008,8/8/2007,8/8/2007,6.6027,6.6027,4.0027,4.0027,3,1,10360000,1,CA,1,0,0,0,0,other,0,0,0,0,0,0,0,0,0,1,c:42610,0,0,0,0,1,0,5,1,closed,qlusters,"Qlusters offers openQRM, a data center provisioning and management software for software provisioning and virtual environment management."
784,NY,40.775309,-73.983656,10001,c:10137,New York,New York NY 10001,Producteev,1,7/8/2008,Still Operating,7/15/2008,2/1/2010,0.0192,1.5699,2.4849,4.8712,12,3,1310000,2,NY,0,1,0,0,0,software,1,0,0,0,0,0,0,0,0,0,c:10137,0,1,0,0,0,0,6,1,acquired,producteev,"Producteev is a free task management application for individuals and teams to collaborate via the web, email, IM, mobile or desktop."
785,NY,40.759089,-73.987573,10036,c:47662,New York,New York NY 10036,SpinTheCam,0,2/12/2010,2/17/2012,1/1/2010,1/1/2010,-0.1151,-0.1151,0.0466,0.0466,1,1,150000,1,NY,0,1,0,0,0,games_video,0,0,0,0,0,1,0,0,0,0,c:47662,0,1,0,0,0,0,1,0,closed,spinthecam,SpinTheCam is a social network with dating and live video chat where people randomly connect within the network.
786,CA,37.229676,-121.971225,95032-5405,c:29387,Los Gatos,Los Gatos CA 95032-5405,Amalfi Semiconductor,1,1/1/2003,Still Operating,2/1/2006,4/24/2012,3.0877,9.3178,0.4959,9.5315,5,3,64000000,2,CA,1,0,0,0,0,semiconductor,0,0,0,0,0,0,0,0,0,1,c:29387,1,0,0,1,1,0,3.3333,1,acquired,amalfi semiconductor,Amalfi Semiconductor develops high-performance CMOS power amplifiers for the cellular industry.
787,OH,39.96226,-83.000706,43207,c:58696,Columbus,Columbus OH 43207,Dormzy,0,5/1/2010,3/1/2013,5/1/2010,5/1/2010,0,0,0,0,2,1,250000,1,OH,0,0,0,0,1,ecommerce,0,0,0,0,0,0,1,0,0,0,c:58696,0,1,0,0,0,0,1,0,closed,dormzy,"Dormzy, an online grocery store for college students, specializes in care packages, non-perishable food, and health and beauty products."
788,CA,34.144926,-118.149767,91105,c:13815,Pasadena,Pasadena CA 91105,iChange,1,1/1/2008,Still Operating,10/1/2007,2/1/2010,-0.2521,2.0877,1.4164,1.4164,6,3,1830000,1,CA,1,0,0,0,0,health,0,0,0,0,0,0,0,0,0,1,c:13815,0,1,1,0,0,0,2,0,acquired,ichange,iChange operates a social network that helps its users reach their goals in weight loss and wellness.
789,OR,39.78373,-100.445882,97204,c:55307,Portland,Portland OR 97204,AppFog,1,8/1/2010,Still Operating,1/1/2011,8/10/2011,0.4192,1.0247,0.7726,2.1699,10,2,9800000,4,OR,0,0,0,0,1,enterprise,0,0,0,1,0,0,0,0,0,0,c:55307,0,0,1,1,0,0,4.5,1,acquired,appfog,AppFog is a Platform-as-a-Service system for public clouds.
790,CA,38.904549,-77.061767,94104,c:2033,San Francisco,San Francisco CA 94104,HotPads,1,5/4/2005,Still Operating,3/1/2007,3/1/2007,1.8247,1.8247,3.8959,5.9068,15,1,2300000,3,CA,1,0,0,0,0,web,0,1,0,0,0,0,0,0,0,0,c:2033,0,0,1,0,0,0,1,0,acquired,hotpads,HotPads is a map-based rental housing and real estate search engine delivering an online and interactive housing search experience.
791,WA,47.682233,-122.135521,98052,c:444,Redmond,Redmond WA 98052,Sampa,0,3/1/2005,7/17/2009,8/1/2007,4/2/2008,2.4192,3.0904,-0.1616,3.9699,3,2,1310000,4,WA,0,0,0,0,1,web,0,1,0,0,0,0,0,0,0,0,c:444,0,1,0,0,0,0,1,0,closed,sampa,"Sampa is a web platform for families and friends to share stories, photos, events and milestones."
792,CA,37.781557,-122.407959,94103,c:454,San Francisco,San Francisco CA 94103,DanceJam,0,4/1/2007,1/1/2011,5/1/2007,2/1/2008,0.0822,0.8384,0,4.1836,4,2,4500000,5,CA,1,0,0,0,0,games_video,0,0,0,0,0,1,0,0,0,0,c:454,0,1,0,1,0,0,5.5,1,closed,dancejam,"DanceJam is a social media destination for dance lovers to watch people dance, learn and share their dancing moves online."
793,CA,37.571318,-122.267962,94404,c:11531,Foster City,Foster City CA 94404,Right90,1,1/1/2003,Still Operating,2/28/2005,9/23/2008,2.1616,5.7315,5.0027,5.0027,5,3,22000000,1,CA,1,0,0,0,0,software,1,0,0,0,0,0,0,0,0,0,c:11531,0,0,1,1,1,0,2.6667,1,acquired,right90,Right90 offers on-demand SaaS forecasting and revenue performance management solutions for enterprises.
794,CA,37.775196,-122.419204,94107,c:741,San Francisco,San Francisco CA 94107,SocialMedia.com,1,1/1/2007,Still Operating,9/1/2007,1/29/2009,0.6658,2.0795,3.0301,4.2877,23,3,10000000,3,CA,1,0,0,0,0,advertising,0,0,0,0,1,0,0,0,0,0,c:741,0,1,1,1,0,0,2.6667,1,acquired,socialmedia.com,"SocialMedia.com is involved in digital advertising through people-powered advertisements, leveraging people’s social relationships."
795,NY,40.730646,-73.986614,10014,c:37826,New York,New York NY 10014,BuyWithMe,1,3/1/2009,Still Operating,1/20/2010,6/1/2011,0.8904,2.2521,2.6603,2.7534,21,4,36500000,3,NY,0,1,0,0,0,ecommerce,0,0,0,0,0,0,1,0,0,0,c:37826,0,0,1,1,1,0,1.5,1,acquired,buywithme,"BuyWithMe is providing a borderless payment ecosystem through QR code and Libra coins, where local merchants can offer deals to members"
796,CO,47.601803,-122.332085,80205,c:7299,Denver,Denver CO 80205,Photobucket,1,6/1/2003,Still Operating,3/1/2005,5/14/2013,1.7507,9.9589,9.3425,10.4603,35,7,33672656,3,CO,0,0,0,0,1,web,0,1,0,0,0,0,0,0,0,0,c:7299,1,0,1,1,0,0,2,1,acquired,photobucket,"Photobucket is an image and video hosting website allowing users to upload, edit and share photos."
797,CA,37.320309,-122.05004,95014,c:35579,Cupertino,Cupertino CA 95014,XtremIO,1,1/1/2009,Still Operating,11/11/2009,12/5/2011,0.8603,2.926,3,3,4,3,19000000,1,CA,1,0,0,0,0,enterprise,0,0,0,1,0,0,0,0,0,0,c:35579,0,0,1,1,0,0,2,1,acquired,xtremio,XtremIO develops next generation storage solutions based on Solid State technology.
798,CA,37.36883,-122.03635,94086,c:21654,Sunnyvale,Sunnyvale CA 94086,Level 5 Networks,1,1/1/2002,Still Operating,6/20/2005,6/20/2005,3.4685,3.4685,2,2,3,1,30000000,1,CA,1,0,0,0,0,semiconductor,0,0,0,0,0,0,0,0,0,1,c:21654,0,0,0,1,0,0,4,1,acquired,level 5 networks,"Level 5 Networks operates as a fabless semiconductor and software company, providing Ethernet network interface cards."
799,CA,37.388869,-122.072353,94041,c:57338,Mountain View,Mountain View CA 94041,Votizen,1,3/19/2009,Still Operating,9/23/2010,2/24/2012,1.5151,2.937,2.6384,3.8164,6,2,2250000,2,CA,1,0,0,0,0,web,0,1,0,0,0,0,0,0,0,0,c:57338,1,0,0,0,0,0,8.5,1,acquired,votizen,Votizen is a consumer technology company that harnesses social networks to create a connected electorate of voters.
800,CA,34.1086325,-118.0215818,91006,c:16613,Arcadia,Arcadia CA 91006,Siimpel Corporation,1,1/1/2000,Still Operating,11/11/2005,12/16/2009,5.8658,9.9644,8.1699,8.1699,7,6,53818873,1,CA,1,0,0,0,0,hardware,0,0,0,0,0,0,0,0,0,1,c:16613,1,0,0,0,1,0,4.25,1,acquired,siimpel corporation,Siimpel Corporation applies high precision MEMS platform technology to enable the reduction in size of high-performance digital cameras.
801,CA,37.553743,-122.300246,94402,c:334,San Mateo,San Mateo CA 94402,TalkPlus,0,2/1/2004,5/7/2008,10/1/2006,10/1/2006,2.6658,2.6658,3.055353048,4.754422568,6,1,5500000,0,CA,1,0,0,0,0,web,0,1,0,0,0,0,0,0,0,0,c:334,0,0,1,0,0,0,1,1,closed,talkplus,TalkPlus offers Voice 2.0 services for mobile networks by using VoIP technology.
802,WA,47.578174,-122.212731,98006,c:8527,Bellevue,Bellevue WA 98006,Napera Networks,1,12/1/2006,Still Operating,11/29/2008,11/29/2008,1.9973,1.9973,-0.0822,3.5205,3,1,6000000,2,WA,0,0,0,0,1,network_hosting,0,0,0,0,0,0,0,0,0,1,c:8527,0,0,1,0,0,0,1,1,acquired,napera networks,Napera Networks delivers cloud-based active network management services for SMEs.
803,CA,39.78373,-100.445882,94063-2026,c:1389,Redwood City,Redwood City CA 94063-2026,NebuAd,0,1/1/2006,5/20/2009,7/1/2007,9/1/2007,1.4959,1.6658,0,7.5233,2,2,30150000,3,CA,1,0,0,0,0,advertising,0,0,0,0,1,0,0,0,0,0,c:1389,0,0,1,1,0,0,1.5,1,closed,nebuad,NebuAd is a media company offering online advertising solutions.
804,CA,37.674559,-122.385658,94005,c:31614,Brisbane,Brisbane CA 94005,Tercica,1,1/1/2002,Still Operating,10/14/2005,7/6/2007,3.7863,5.5123,3.055353048,4.754422568,11,2,83000000,0,CA,1,0,0,0,0,biotech,0,0,0,0,0,0,0,1,0,0,c:31614,1,0,0,0,0,0,1,0,acquired,tercica,"Tercica, a biotechnology company, develops and commercializes therapeutics for the treatment of endocrine and metabolic diseases."
805,NY,40.737216,-73.990947,10003,c:15709,New York,New York NY 10003,Robotgalaxy,0,1/1/2006,12/9/2012,1/1/2007,9/16/2008,1,2.7096,3.055353048,4.754422568,1,2,12000000,0,NY,0,1,0,0,0,games_video,0,0,0,0,0,1,0,0,0,0,c:15709,0,0,1,1,0,0,1,0,closed,robotgalaxy,Robot Galaxy is a mall-based retail and entertainment company allowing children to build their own personalized robots.
806,CA,37.36883,-122.03635,94085,c:63053,Sunnyvale,Sunnyvale CA 94085,PasswordBank,1,1/1/2008,Still Operating,3/1/2008,7/1/2009,0.1644,1.4986,3.1644,5.5479,6,2,3500000,2,CA,1,0,0,0,0,software,1,0,0,0,0,0,0,0,0,0,c:63053,0,1,1,0,0,0,1,0,acquired,passwordbank,PasswordBank provides an IDaaS-based platform helping users store passwords and user IDs of websites and apps.
807,CA,37.433414,-122.128772,94306,c:668,Palo Alto,Palo Alto CA 94306,SnapTell,1,1/1/2006,Still Operating,6/7/2007,6/7/2007,1.4301,1.4301,2.3452,3.4575,5,1,4000000,3,CA,1,0,0,0,0,software,1,0,0,0,0,0,0,0,0,0,c:668,0,0,1,0,0,0,4,1,acquired,snaptell,"SnapTell provides an integrated mobile marketing solution for brands to deploy campaigns, and consumers to access content on the go."
808,CA,33.87751,-117.727046,92887,c:79149,Yorba Linda,Yorba Linda CA 92887,Gigi Hill,0,1/1/2009,7/16/2013,6/15/2011,8/8/2012,2.4521,3.6027,3.055353048,4.754422568,9,2,4000000,0,CA,1,0,0,0,0,manufacturing,0,0,0,0,0,0,0,0,0,1,c:79149,0,0,1,0,0,0,1,1,closed,gigi hill,Gigi Hill is a direct sales company that designs and manufactures handbags and totes.
809,CA,37.409618,-122.017792,94089,c:17070,Sunnyvale,Sunnyvale CA 94089,CloudShield Technologies,1,1/1/2000,Still Operating,10/28/2005,9/17/2007,5.8274,7.7151,10.0082,10.0082,11,2,25000000,1,CA,1,0,0,0,0,software,1,0,0,0,0,0,0,0,0,0,c:17070,1,0,0,0,0,0,4.5,1,acquired,cloudshield technologies,CloudShield Technologies provides IP service control and infrastructure protection solutions on network and content processing platforms.
810,NY,40.73901,-73.997259,10011,c:7329,New York,New York NY 10011,Instinctiv,1,8/1/2007,Still Operating,6/1/2008,5/5/2011,0.8356,3.7616,0.9041,0.9041,5,3,1420698,1,NY,0,1,0,0,0,mobile,0,0,1,0,0,0,0,0,0,0,c:7329,1,1,0,0,0,0,2,1,acquired,instinctiv,Instinctiv is a music management and discovery app that syncs a user’s entire music library to any desktop computer or mobile phone.
811,CA,37.2496346,-121.9665932,95008,c:26666,Campbell,Campbell CA 95008,Anchor Bay Technologies,1,10/1/2001,Still Operating,5/16/2003,1/29/2007,1.6219,5.3315,-3.7507,-3.7507,5,2,10000000,1,CA,1,0,0,0,0,semiconductor,0,0,0,0,0,0,0,0,0,1,c:26666,1,0,1,0,0,0,3,1,acquired,anchor bay technologies,Anchor Bay Technologies designs and manufactures audio and video technologies for home entertainment centers.
812,CA,37.441537,-122.158332,94301,c:32475,Palo Alto,Palo Alto CA 94301,Waze,1,1/1/2007,Still Operating,3/1/2008,10/18/2011,1.1644,4.7973,2.326,6.9041,18,3,67000000,5,CA,1,0,0,0,0,transportation,0,0,0,0,0,0,0,0,0,1,c:32475,0,0,1,1,1,0,2.6667,1,acquired,waze,"Waze is a mobile navigation app that enables drivers to use live maps, and get real-time traffic updates and other road data."
813,CA,37.5068854,-122.2475729,94070,c:5585,San Carlos,San Carlos CA 94070,Aster Data Systems,1,7/1/2005,Still Operating,11/1/2005,9/22/2010,0.337,5.2301,4.1726,5.7205,13,4,53000000,3,CA,1,0,0,0,0,analytics,0,0,0,0,0,0,0,0,0,1,c:5585,0,1,1,1,1,0,4.5,1,acquired,aster data systems,Aster Data provides big data management and analysis solutions for businesses that handle data-driven applications.
814,CA,34.050451,-118.437775,90024,c:59298,Los Angeles,Los Angeles CA 90024,Diversion,0,5/1/2010,6/1/2012,10/18/2010,7/22/2011,0.4658,1.2247,0,1.2247,5,2,300000,2,CA,1,0,0,0,0,games_video,0,0,0,0,0,1,0,0,0,0,c:59298,0,1,0,1,0,0,2,1,closed,diversion,Diversion aims at providing a fusion between the entertainment industry and the revival of social gaming.
815,CA,37.441537,-122.158332,94301,c:19725,Palo Alto,Palo Alto CA 94301,Codesion,1,1/1/2002,Still Operating,9/1/2007,7/1/2010,5.6685,8.5014,6.7534,8.0932,4,3,1400000,2,CA,1,0,0,0,0,software,1,0,0,0,0,0,0,0,0,0,c:19725,0,1,0,0,0,0,1,0,acquired,codesion,Codesion is a software company providing source code management solutions.
